name,latitude,longitude
Апатиты,67.5678295,33.4067218
Екатеринбург,56.8386326,60.6054887
Иннополис,55.7521544,48.7446161
Казань,55.7943877,49.1115312
Москва,55.7522200,37.6155600
Санкт-Петербург,59.9386300,30.3141300
Уфа,54.734853,55.9578647
Хабаровск,59.9477728,40.2000794
